[
  {
    "name": "鹿島アントラーズ",
    "division": 1,
    "location": "茨城県鹿嶋市",
    "image_url": "",
    "team_color": "#B8193F",
    "website_url": "https://www.antlers.co.jp/",
    "main_stadium_name": "メルカリスタジアム",
    "stadium_latitude": 35.9925,
    "stadium_longitude": 140.6411,
    "description": "国内外で数多くのタイトルを誇る強豪クラブ。高い育成力と勝負どころでの強さが特徴。",
    "prefecture_id": 8
  },
  {
    "name": "浦和レッズ",
    "division": 1,
    "location": "埼玉県さいたま市",
    "image_url": "",
    "team_color": "#E6002D",
    "website_url": "https://www.urawa-reds.co.jp/",
    "main_stadium_name": "埼玉スタジアム２００２",
    "stadium_latitude": 35.9031,
    "stadium_longitude": 139.7171,
    "description": "国内最大級のサポーター数を誇るクラブ。熱狂的なホーム雰囲気と国際舞台での実績あり。",
    "prefecture_id": 11
  },
  {
    "name": "柏レイソル",
    "division": 1,
    "location": "千葉県柏市",
    "image_url": "",
    "team_color": "#FFF100",
    "website_url": "https://www.reysol.co.jp/",
    "main_stadium_name": "三協フロンテア柏スタジアム",
    "stadium_latitude": 35.853,
    "stadium_longitude": 139.9726,
    "description": "",
    "prefecture_id": 12
  },
  {
    "name": "FC東京",
    "division": 1,
    "location": "東京都",
    "image_url": "",
    "team_color": "#000a6e",
    "website_url": "https://www.fctokyo.co.jp/",
    "main_stadium_name": "味の素スタジアム",
    "stadium_latitude": 35.6645,
    "stadium_longitude": 139.5275,
    "description": "",
    "prefecture_id": 13
  },
  {
    "name": "東京ヴェルディ",
    "division": 1,
    "location": "東京都",
    "image_url": "",
    "team_color": "#046a38",
    "website_url": "https://www.verdy.co.jp/",
    "main_stadium_name": "味の素スタジアム",
    "stadium_latitude": 35.6645,
    "stadium_longitude": 139.5275,
    "description": "",
    "prefecture_id": 13
  },
  {
    "name": "FC町田ゼルビア",
    "division": 1,
    "location": "東京都町田市",
    "image_url": "",
    "team_color": "#001C6D",
    "website_url": "https://www.zelvia.co.jp/",
    "main_stadium_name": "町田GIONスタジアム",
    "stadium_latitude": 35.5548,
    "stadium_longitude": 139.4444,
    "description": "",
    "prefecture_id": 13
  },
  {
    "name": "川崎フロンターレ",
    "division": 1,
    "location": "神奈川県川崎市",
    "image_url": "",
    "team_color": "#23B1EA",
    "website_url": "https://www.frontale.co.jp/",
    "main_stadium_name": "Uvanceとどろきスタジアム by Fujitsu",
    "stadium_latitude": 35.5859,
    "stadium_longitude": 139.6528,
    "description": "近年タイトルを重ねる強豪クラブ。ファンサービスも豊かで、観客動員力が高い。",
    "prefecture_id": 14
  },
  {
    "name": "横浜F・マリノス",
    "division": 1,
    "location": "神奈川県横浜市",
    "image_url": "",
    "team_color": "#004094",
    "website_url": "https://www.f-marinos.com/",
    "main_stadium_name": "日産スタジアム",
    "stadium_latitude": 35.51,
    "stadium_longitude": 139.606,
    "description": "歴史あるクラブ。国際大会でも実績があり、攻撃的なサッカーと華やかな応援で知られる。",
    "prefecture_id": 14
  },
  {
    "name": "横浜FC",
    "division": 1,
    "location": "神奈川県横浜市",
    "image_url": "",
    "team_color": "#00A1E9",
    "website_url": "https://www.yokohamafc.com/",
    "main_stadium_name": "ニッパツ三ツ沢球技場",
    "stadium_latitude": 35.458,
    "stadium_longitude": 139.6068,
    "description": "",
    "prefecture_id": 14
  },
  {
    "name": "湘南ベルマーレ",
    "division": 1,
    "location": "神奈川県平塚市",
    "image_url": "",
    "team_color": "#6EB92B",
    "website_url": "https://www.bellmare.co.jp/",
    "main_stadium_name": "レモンガススタジアム平塚",
    "stadium_latitude": 35.3315,
    "stadium_longitude": 139.3423,
    "description": "",
    "prefecture_id": 14
  },
  {
    "name": "アルビレックス新潟",
    "division": 1,
    "location": "新潟県新潟市",
    "image_url": "",
    "team_color": "#EA5404",
    "website_url": "https://www.albirex.co.jp/",
    "main_stadium_name": "デンカビッグスワンスタジアム",
    "stadium_latitude": 37.8863,
    "stadium_longitude": 139.0418,
    "description": "",
    "prefecture_id": 15
  },
  {
    "name": "清水エスパルス",
    "division": 1,
    "location": "静岡県静岡市",
    "image_url": "",
    "team_color": "#FF8709",
    "website_url": "https://www.s-pulse.co.jp/",
    "main_stadium_name": "IAIスタジアム日本平",
    "stadium_latitude": 35.0004,
    "stadium_longitude": 138.4489,
    "description": "",
    "prefecture_id": 22
  },
  {
    "name": "名古屋グランパス",
    "division": 1,
    "location": "愛知県名古屋市",
    "image_url": "",
    "team_color": "#d80c18",
    "website_url": "https://nagoya-grampus.jp/",
    "main_stadium_name": "豊田スタジアム",
    "stadium_latitude": 35.0845,
    "stadium_longitude": 137.1708,
    "description": "地域との結びつきが強く、熱心なサポーターが支えるクラブ。戦術的な試合運びに強みあり。",
    "prefecture_id": 23
  },
  {
    "name": "京都サンガF.C.",
    "division": 1,
    "location": "京都府京都市",
    "image_url": "",
    "team_color": "#750069",
    "website_url": "https://www.sanga-fc.jp/",
    "main_stadium_name": "サンガスタジアム by KYOCERA",
    "stadium_latitude": 35.0187,
    "stadium_longitude": 135.5772,
    "description": "",
    "prefecture_id": 26
  },
  {
    "name": "ガンバ大阪",
    "division": 1,
    "location": "大阪府吹田市",
    "image_url": "",
    "team_color": "#003287",
    "website_url": "https://www.gamba-osaka.net/",
    "main_stadium_name": "パナソニック スタジアム 吹田",
    "stadium_latitude": 34.7934,
    "stadium_longitude": 135.532,
    "description": "西日本を代表するクラブ。攻守のバランスが良く、アカデミー育成にも力を入れている。",
    "prefecture_id": 27
  },
  {
    "name": "セレッソ大阪",
    "division": 1,
    "location": "大阪府大阪市",
    "image_url": "",
    "team_color": "#FA1A82",
    "website_url": "https://www.cerezo.jp/",
    "main_stadium_name": "ヨドコウ桜スタジアム",
    "stadium_latitude": 34.616,
    "stadium_longitude": 135.519,
    "description": "",
    "prefecture_id": 27
  },
  {
    "name": "ヴィッセル神戸",
    "division": 1,
    "location": "兵庫県神戸市",
    "image_url": "",
    "team_color": "#9d0020",
    "website_url": "https://www.vissel-kobe.co.jp/",
    "main_stadium_name": "ノエビアスタジアム神戸",
    "stadium_latitude": 34.6568,
    "stadium_longitude": 135.1681,
    "description": "国内外スター選手を擁する注目クラブ。魅せるサッカーを期待させる。",
    "prefecture_id": 28
  },
  {
    "name": "ファジアーノ岡山",
    "division": 1,
    "location": "岡山県岡山市",
    "image_url": "",
    "team_color": "#B5003C",
    "website_url": "https://www.fagiano-okayama.com/",
    "main_stadium_name": "JFE晴れの国スタジアム",
    "stadium_latitude": 34.665,
    "stadium_longitude": 133.9161,
    "description": "",
    "prefecture_id": 33
  },
  {
    "name": "サンフレッチェ広島",
    "division": 1,
    "location": "広島県広島市",
    "image_url": "",
    "team_color": "#51318F",
    "website_url": "https://www.sanfrecce.co.jp/",
    "main_stadium_name": "エディオンピースウイング広島",
    "stadium_latitude": 34.3938,
    "stadium_longitude": 132.451,
    "description": "紫色を象徴色とするクラブ。スタイルにこだわったプレーと地域貢献活動も盛ん。",
    "prefecture_id": 34
  },
  {
    "name": "アビスパ福岡",
    "division": 1,
    "location": "福岡県福岡市",
    "image_url": "",
    "team_color": "#00205C",
    "website_url": "https://www.avispa.co.jp/",
    "main_stadium_name": "ベスト電器スタジアム",
    "stadium_latitude": 33.5932,
    "stadium_longitude": 130.4536,
    "description": "",
    "prefecture_id": 40
  },
  {
    "name": "北海道コンサドーレ札幌",
    "division": 2,
    "location": "北海道札幌市",
    "image_url": "",
    "team_color": "#cc0000",
    "website_url": "https://www.consadole-sapporo.jp/",
    "main_stadium_name": "大和ハウス プレミストドーム",
    "stadium_latitude": 43.0169,
    "stadium_longitude": 141.4096,
    "description": "",
    "prefecture_id": 1
  },
  {
    "name": "ベガルタ仙台",
    "division": 2,
    "location": "宮城県仙台市",
    "image_url": "",
    "team_color": "#FFDf00",
    "website_url": "https://www.vegalta.co.jp/",
    "main_stadium_name": "ユアテックスタジアム仙台",
    "stadium_latitude": 38.3242,
    "stadium_longitude": 140.8811,
    "description": "",
    "prefecture_id": 4
  },
  {
    "name": "ブラウブリッツ秋田",
    "division": 2,
    "location": "秋田県秋田市",
    "image_url": "",
    "team_color": "#005BAB",
    "website_url": "https://blaublitz.jp/",
    "main_stadium_name": "ソユースタジアム",
    "stadium_latitude": 39.7516,
    "stadium_longitude": 140.0865,
    "description": "",
    "prefecture_id": 5
  },
  {
    "name": "モンテディオ山形",
    "division": 2,
    "location": "山形県山形市",
    "image_url": "",
    "team_color": "#014099",
    "website_url": "https://www.montedioyamagata.jp/",
    "main_stadium_name": "NDソフトスタジアム山形",
    "stadium_latitude": 38.3678,
    "stadium_longitude": 140.3809,
    "description": "",
    "prefecture_id": 6
  },
  {
    "name": "いわきFC",
    "division": 2,
    "location": "福島県いわき市",
    "image_url": "",
    "team_color": "#C01730",
    "website_url": "https://iwakifc.com/",
    "main_stadium_name": "ハワイアンズスタジアムいわき",
    "stadium_latitude": 37.0613,
    "stadium_longitude": 140.892,
    "description": "",
    "prefecture_id": 7
  },
  {
    "name": "水戸ホーリーホック",
    "division": 2,
    "location": "茨城県水戸市",
    "image_url": "",
    "team_color": "#0075c2",
    "website_url": "https://www.mito-hollyhock.net/",
    "main_stadium_name": "ケーズデンキスタジアム水戸",
    "stadium_latitude": 36.3437,
    "stadium_longitude": 140.413,
    "description": "",
    "prefecture_id": 8
  },
  {
    "name": "RB大宮アルディージャ",
    "division": 2,
    "location": "埼玉県さいたま市",
    "image_url": "",
    "team_color": "#ED6D00",
    "website_url": "https://www.ardija.co.jp/",
    "main_stadium_name": "NACK5スタジアム大宮",
    "stadium_latitude": 35.9152,
    "stadium_longitude": 139.6239,
    "description": "",
    "prefecture_id": 11
  },
  {
    "name": "ジェフユナイテッド千葉",
    "division": 2,
    "location": "千葉県千葉市",
    "image_url": "",
    "team_color": "#FEE100",
    "website_url": "https://jefunited.co.jp/",
    "main_stadium_name": "フクダ電子アリーナ",
    "stadium_latitude": 35.5855,
    "stadium_longitude": 140.1234,
    "description": "",
    "prefecture_id": 12
  },
  {
    "name": "ヴァンフォーレ甲府",
    "division": 2,
    "location": "山梨県甲府市",
    "image_url": "",
    "team_color": "#1937B7",
    "website_url": "https://www.ventfort-kofu.jp/",
    "main_stadium_name": "JIT リサイクルインク スタジアム",
    "stadium_latitude": 35.6149,
    "stadium_longitude": 138.5688,
    "description": "",
    "prefecture_id": 19
  },
  {
    "name": "カターレ富山",
    "division": 2,
    "location": "富山県富山市",
    "image_url": "",
    "team_color": "#111987",
    "website_url": "https://www.kataller.co.jp/",
    "main_stadium_name": "富山県総合運動公園陸上競技場",
    "stadium_latitude": 36.6965,
    "stadium_longitude": 137.241,
    "description": "",
    "prefecture_id": 16
  },
  {
    "name": "ジュビロ磐田",
    "division": 2,
    "location": "静岡県磐田市",
    "image_url": "",
    "team_color": "#6C8CBD",
    "website_url": "https://www.jubilo-iwata.co.jp/",
    "main_stadium_name": "ヤマハスタジアム（磐田）",
    "stadium_latitude": 34.7415,
    "stadium_longitude": 137.8511,
    "description": "",
    "prefecture_id": 22
  },
  {
    "name": "藤枝MYFC",
    "division": 2,
    "location": "静岡県藤枝市",
    "image_url": "",
    "team_color": "#86347C",
    "website_url": "https://myfc.co.jp/",
    "main_stadium_name": "藤枝総合運動公園サッカー場",
    "stadium_latitude": 34.8757,
    "stadium_longitude": 138.2316,
    "description": "",
    "prefecture_id": 22
  },
  {
    "name": "レノファ山口FC",
    "division": 2,
    "location": "山口県山口市",
    "image_url": "",
    "team_color": "#EB5E00",
    "website_url": "https://www.renofa.com/",
    "main_stadium_name": "維新みらいふスタジアム",
    "stadium_latitude": 34.1686,
    "stadium_longitude": 131.4413,
    "description": "",
    "prefecture_id": 35
  },
  {
    "name": "徳島ヴォルティス",
    "division": 2,
    "location": "徳島県徳島市",
    "image_url": "",
    "team_color": "#01426a",
    "website_url": "https://www.vortis.jp/",
    "main_stadium_name": "鳴門・大塚スポーツパーク ポカリスエットスタジアム",
    "stadium_latitude": 34.1697,
    "stadium_longitude": 134.5855,
    "description": "",
    "prefecture_id": 36
  },
  {
    "name": "愛媛FC",
    "division": 2,
    "location": "愛媛県松山市",
    "image_url": "",
    "team_color": "#F39801",
    "website_url": "https://www.ehimefc.com/",
    "main_stadium_name": "ニンジニアスタジアム",
    "stadium_latitude": 33.839,
    "stadium_longitude": 132.7653,
    "description": "",
    "prefecture_id": 38
  },
  {
    "name": "FC今治",
    "division": 2,
    "location": "愛媛県今治市",
    "image_url": "",
    "team_color": "#171C61",
    "website_url": "https://www.fcimabari.com/",
    "main_stadium_name": "アシックス里山スタジアム",
    "stadium_latitude": 34.067,
    "stadium_longitude": 132.9971,
    "description": "",
    "prefecture_id": 38
  },
  {
    "name": "サガン鳥栖",
    "division": 2,
    "location": "佐賀県鳥栖市",
    "image_url": "",
    "team_color": "#00A1D3",
    "website_url": "https://www.sagan-tosu.net/",
    "main_stadium_name": "駅前不動産スタジアム",
    "stadium_latitude": 33.3703,
    "stadium_longitude": 130.5168,
    "description": "",
    "prefecture_id": 41
  },
  {
    "name": "V・ファーレン長崎",
    "division": 2,
    "location": "長崎県長崎市",
    "image_url": "",
    "team_color": "#003893",
    "website_url": "https://www.v-varen.com/",
    "main_stadium_name": "PEACE STADIUM Connected by SoftBank",
    "stadium_latitude": 32.8212,
    "stadium_longitude": 130.0433,
    "description": "",
    "prefecture_id": 42
  },
  {
    "name": "ロアッソ熊本",
    "division": 2,
    "location": "熊本県熊本市",
    "image_url": "",
    "team_color": "#B61A14",
    "website_url": "https://roasso-k.com/",
    "main_stadium_name": "えがお健康スタジアム",
    "stadium_latitude": 32.8693,
    "stadium_longitude": 130.76,
    "description": "",
    "prefecture_id": 43
  },
  {
    "name": "大分トリニータ",
    "division": 2,
    "location": "大分県大分市",
    "image_url": "",
    "team_color": "#140B8C",
    "website_url": "https://www.oita-trinita.co.jp/",
    "main_stadium_name": "クラサスドーム大分",
    "stadium_latitude": 33.2043,
    "stadium_longitude": 131.6586,
    "description": "",
    "prefecture_id": 44
  },
  {
    "name": "ヴァンラーレ八戸",
    "division": 3,
    "location": "青森県八戸市",
    "image_url": "",
    "team_color": "#14A83B",
    "website_url": "https://vanraure.net/",
    "main_stadium_name": "プライフーズスタジアム",
    "stadium_latitude": 40.5829,
    "stadium_longitude": 141.4826,
    "description": "",
    "prefecture_id": 2
  },
  {
    "name": "福島ユナイテッドFC",
    "division": 3,
    "location": "福島県福島市",
    "image_url": "",
    "team_color": "#E60012",
    "website_url": "https://fufc.jp/",
    "main_stadium_name": "とうほう・みんなのスタジアム",
    "stadium_latitude": 37.801,
    "stadium_longitude": 140.4699,
    "description": "",
    "prefecture_id": 7
  },
  {
    "name": "栃木SC",
    "division": 3,
    "location": "栃木県宇都宮市",
    "image_url": "",
    "team_color": "#FFF100",
    "website_url": "https://www.tochigisc.jp/",
    "main_stadium_name": "カンセキスタジアムとちぎ",
    "stadium_latitude": 36.5658,
    "stadium_longitude": 139.8989,
    "description": "",
    "prefecture_id": 9
  },
  {
    "name": "栃木シティ",
    "division": 3,
    "location": "栃木県栃木市",
    "image_url": "",
    "team_color": "#002955",
    "website_url": "https://tochigi-city.com/",
    "main_stadium_name": "CITY FOOTBALL STATION",
    "stadium_latitude": 36.3998,
    "stadium_longitude": 139.7177,
    "description": "",
    "prefecture_id": 9
  },
  {
    "name": "ザスパ群馬",
    "division": 3,
    "location": "群馬県前橋市",
    "image_url": "",
    "team_color": "#013E74",
    "website_url": "https://www.thespa.co.jp/",
    "main_stadium_name": "正田醤油スタジアム群馬",
    "stadium_latitude": 36.4094,
    "stadium_longitude": 139.0438,
    "description": "",
    "prefecture_id": 10
  },
  {
    "name": "SC相模原",
    "division": 3,
    "location": "神奈川県相模原市",
    "image_url": "",
    "team_color": "#278E42",
    "website_url": "https://www.scsagamihara.com/",
    "main_stadium_name": "相模原ギオンスタジアム",
    "stadium_latitude": 35.5403,
    "stadium_longitude": 139.3597,
    "description": "",
    "prefecture_id": 14
  },
  {
    "name": "松本山雅FC",
    "division": 3,
    "location": "長野県松本市",
    "image_url": "",
    "team_color": "#006633",
    "website_url": "https://www.yamaga-fc.com/",
    "main_stadium_name": "サンプロ アルウィン",
    "stadium_latitude": 36.2032,
    "stadium_longitude": 137.9076,
    "description": "",
    "prefecture_id": 20
  },
  {
    "name": "AC長野パルセイロ",
    "division": 3,
    "location": "長野県長野市",
    "image_url": "",
    "team_color": "#EB6100",
    "website_url": "https://parceiro.co.jp/",
    "main_stadium_name": "長野Uスタジアム",
    "stadium_latitude": 36.6348,
    "stadium_longitude": 138.1641,
    "description": "",
    "prefecture_id": 20
  },
  {
    "name": "ツエーゲン金沢",
    "division": 3,
    "location": "石川県金沢市",
    "image_url": "",
    "team_color": "#D70C1F",
    "website_url": "https://www.zweigen-kanazawa.jp/",
    "main_stadium_name": "金沢ゴーゴーカレースタジアム",
    "stadium_latitude": 36.5818,
    "stadium_longitude": 136.6528,
    "description": "",
    "prefecture_id": 17
  },
  {
    "name": "アスルクラロ沼津",
    "division": 3,
    "location": "静岡県沼津市",
    "image_url": "",
    "team_color": "#465AB3",
    "website_url": "https://www.azul-claro.jp/",
    "main_stadium_name": "愛鷹広域公園多目的競技場",
    "stadium_latitude": 35.1475,
    "stadium_longitude": 138.8712,
    "description": "",
    "prefecture_id": 22
  },
  {
    "name": "FC岐阜",
    "division": 3,
    "location": "岐阜県岐阜市",
    "image_url": "",
    "team_color": "#16582A",
    "website_url": "https://www.fc-gifu.com/",
    "main_stadium_name": "岐阜メモリアルセンター長良川競技場",
    "stadium_latitude": 35.4429,
    "stadium_longitude": 136.7562,
    "description": "",
    "prefecture_id": 21
  },
  {
    "name": "FC大阪",
    "division": 3,
    "location": "大阪府東大阪市",
    "image_url": "",
    "team_color": "#91D4F4",
    "website_url": "https://fc-osaka.com/",
    "main_stadium_name": "東大阪市花園ラグビー場",
    "stadium_latitude": 34.661,
    "stadium_longitude": 135.6014,
    "description": "",
    "prefecture_id": 27
  },
  {
    "name": "奈良クラブ",
    "division": 3,
    "location": "奈良県奈良市",
    "image_url": "",
    "team_color": "#013e7f",
    "website_url": "https://naraclub.jp/",
    "main_stadium_name": "ロートフィールド奈良",
    "stadium_latitude": 34.6733,
    "stadium_longitude": 135.8409,
    "description": "",
    "prefecture_id": 29
  },
  {
    "name": "ガイナーレ鳥取",
    "division": 3,
    "location": "鳥取県鳥取市",
    "image_url": "",
    "team_color": "#90ee90",
    "website_url": "https://www.gainare.co.jp/",
    "main_stadium_name": "Axisバードスタジアム",
    "stadium_latitude": 35.5132,
    "stadium_longitude": 134.1919,
    "description": "",
    "prefecture_id": 31
  },
  {
    "name": "カマタマーレ讃岐",
    "division": 3,
    "location": "香川県高松市",
    "image_url": "",
    "team_color": "#65AADD",
    "website_url": "https://www.kamatamare.jp/",
    "main_stadium_name": "香川県立丸亀競技場",
    "stadium_latitude": 34.2893,
    "stadium_longitude": 133.8092,
    "description": "",
    "prefecture_id": 37
  },
  {
    "name": "高知ユナイテッドSC",
    "division": 3,
    "location": "高知県高知市",
    "image_url": "",
    "team_color": "#B81C22",
    "website_url": "https://kochi-usc.jp/",
    "main_stadium_name": "高知県立春野総合運動公園陸上競技場",
    "stadium_latitude": 33.5029,
    "stadium_longitude": 133.5101,
    "description": "",
    "prefecture_id": 39
  },
  {
    "name": "ギラヴァンツ北九州",
    "division": 3,
    "location": "福岡県北九州市",
    "image_url": "",
    "team_color": "#FFF100",
    "website_url": "https://www.giravanz.jp/",
    "main_stadium_name": "ミクニワールドスタジアム北九州",
    "stadium_latitude": 33.8761,
    "stadium_longitude": 130.8804,
    "description": "",
    "prefecture_id": 40
  },
  {
    "name": "テゲバジャーロ宮崎",
    "division": 3,
    "location": "宮崎県宮崎市",
    "image_url": "",
    "team_color": "#E12A75",
    "website_url": "https://www.tegevajaro.com/",
    "main_stadium_name": "いちご宮崎新富サッカー場",
    "stadium_latitude": 32.0731,
    "stadium_longitude": 131.4673,
    "description": "",
    "prefecture_id": 45
  },
  {
    "name": "鹿児島ユナイテッドFC",
    "division": 3,
    "location": "鹿児島県鹿児島市",
    "image_url": "",
    "team_color": "#2E3B67",
    "website_url": "https://kufc.co.jp/",
    "main_stadium_name": "白波スタジアム（県立鴨池陸上競技場）",
    "stadium_latitude": 31.5542,
    "stadium_longitude": 130.5467,
    "description": "",
    "prefecture_id": 46
  },
  {
    "name": "FC琉球",
    "division": 3,
    "location": "沖縄県沖縄市",
    "image_url": "",
    "team_color": "#CA0915",
    "website_url": "https://fcryukyu.com/",
    "main_stadium_name": "沖縄県総合運動公園陸上競技場",
    "stadium_latitude": 26.3196,
    "stadium_longitude": 127.8061,
    "description": "",
    "prefecture_id": 47
  }
]